{"name":"Building","sprite":"Icon0","type":1,"category":"any","subcategory":"Generic","material":"Material","state":"Original","location":"Everywhere","rarity":"Unique","value":1}
{"name":"Land","sprite":"Icon1","type":1,"category":"any","subcategory":"Generic","material":"Material","state":"Original","location":"Everywhere","rarity":"Unique","value":1}
{"name":"Item","sprite":"Icon2","type":0,"category":"any","subcategory":"Generic","material":"Material","state":"Original","location":"Everywhere","rarity":"Unique","value":1}
{"name":"Bloody Bone","sprite":"Bloody Bone","type":0,"category":"Food","subcategory":"Bone Meal","material":"Bone","state":"Raw","location":"Wastes","rarity":"Common","value":1}
{"name":"Grisly Stuffed Marrow","sprite":"Grisly Stuffed Marrow","type":0,"category":"Food","subcategory":"Bone Meal","material":"Bone","state":"Cooked","location":"Wastes","rarity":"Common","value":2}
{"name":"Bubbling Green Mulk","sprite":"Bubbling Green Mulk","type":0,"category":"Food","subcategory":"Green Mulk","material":"Dairy","state":"Cooked","location":"Markets","rarity":"Uncommon","value":4}
{"name":"Mulk Broth","sprite":"Cooked Mulk Powder","type":0,"category":"Food","subcategory":"Green Mulk","material":"Dairy","state":"Cooked","location":"Markets","rarity":"Uncommon","value":2}
{"name":"Mulk Powder","sprite":"Mulk Powder","type":0,"category":"Food","subcategory":"Green Mulk","material":"Dairy","state":"Raw","location":"Wastes","rarity":"Common","value":3}
{"name":"Scrap Metal","sprite":"Scrap Metal","type":0,"category":"Scrap","subcategory":"Generic","material":"Metal","state":"Original","location":"Wastes","rarity":"Common","value":1}
{"name":"Old Newspaper","sprite":"Old Newspaper","type":0,"category":"Scrap","subcategory":"Generic","material":"Paper","state":"Original","location":"Wastes","rarity":"Common","value":1}
{"name":"Cricket Kidney","sprite":"Cricket Kidney","type":0,"category":"Food","subcategory":"Cricket Kidney","material":"Insect","state":"Raw","location":"Wastes","rarity":"Common","value":2}
{"name":"Sizziling Kidney Lumps","sprite":"Sizziling Kidney Lumps","type":0,"category":"Food","subcategory":"Cricket Kidney","material":"Insect","state":"Cooked","location":"Markets","rarity":"Uncommon","value":1}
{"name":"Spent Charcoal","sprite":"Spent Charcoal","type":0,"category":"Waste","subcategory":"Generic","material":"Carbon","state":"Original","location":"Wastes","rarity":"Common","value":0}
{"name":"Ash","sprite":"Ash","type":0,"category":"Waste","subcategory":"Generic","material":"Carbon","state":"Original","location":"Everywhere","rarity":"Common","value":0}
{"name":"Meat Slop","sprite":"Meat Slop","type":0,"category":"Food","subcategory":"Generic","material":"Meat","state":"Cooked","location":"Markets","rarity":"Uncommon","value":4}
{"name":"Supercold Fusion Engine","sprite":"Supercold Fusion Engine","type":0,"category":"Advanced Mechanics","subcategory":"Generic","material":"Metal","state":"Original","location":"Mechanist","rarity":"Legendary","value":11}
{"name":"Antimass Carbonator","sprite":"Antimass Carbonator","type":0,"category":"Advanced Mechanics","subcategory":"Generic","material":"Metal","state":"Original","location":"Mechanist","rarity":"Singular","value":8}
{"name":"Unnaturally Tasty Meal","sprite":"Unnaturally Tasty Meal","type":0,"category":"Food","subcategory":"Generic","material":"Organic","state":"Cooked","location":"Markets","rarity":"Rare","value":5}
{"name":"Terrible Meal","sprite":"Terrible Meal","type":0,"category":"Food","subcategory":"Generic","material":"Organic","state":"Cooked","location":"Markets","rarity":"Common","value":1}
{"name":"Oily Rags","sprite":"Oily Rags","type":0,"category":"Scrap","subcategory":"Generic","material":"Textile","state":"Original","location":"Wastes","rarity":"Common","value":1}
{"name":"19th Century Wood","sprite":"19th Century Wood","type":0,"category":"Relic","subcategory":"Generic","material":"Wood","state":"Original","location":"Markets","rarity":"Rare","value":3}
{"name":"Godkin Knuckle","sprite":"Godkin Knuckle","type":0,"category":"Divine","subcategory":"Generic","material":"Antimatter","state":"Original","location":"Everywhere","rarity":"Ludicrous","value":100}
